[
  {"id": 1, "station": "Binnenhof", "latitude": 51.96039721796564, "longitude": 4.5349799820333425},
  {"id": 2, "station": "Romeynshof", "latitude": 51.96165993424043, "longitude": 4.543369931818328},
  {"id": 3, "station": "Graskruid", "latitude": 51.956946052736306, "longitude": 4.549581927907429},
  {"id": 4, "station": "Alexander", "latitude": 51.951497695666816, "longitude": 4.551802796975569},
  {"id": 5, "station": "Oosterflank", "latitude": 51.94584366411516, "longitude": 4.5544099041324415},
  {"id": 6, "station": "Prinsenlaan", "latitude": 51.94041380034679, "longitude": 4.556566400188041},
  {"id": 7, "station": "Schenkel", "latitude": 51.93234384836508, "longitude": 4.563400668757384},
  {"id": 8, "station": "Capelsebrug", "latitude": 51.92145898857578, "longitude": 4.5578167000918866,
  {"id": 9, "station": "Kralingse Zoom", "latitude": 51.92180306678575, "longitude": 4.532561020008845},
  {"id": 10, "station": "Voorschoterlaan", "latitude": 51.925078294697606, "longitude": 4.512605384923738},
  {"id": 11, "station": "Gerdesiaweg", "latitude": 51.92587886962053, "longitude": 4.505953506570383},
  {"id": 12, "station": "Oostplein", "latitude": 51.923099953306014, "longitude": 4.496555046181126},
  {"id": 13, "station": "Blaak", "latitude": 51.920122352025906, "longitude": 4.4891199627929215},
  {"id": 14, "station": "Beurs", "latitude": 51.918285176890585, "longitude": 4.48131061241152},
  {"id": 15, "station": "Eendrachtsplein", "latitude": 51.91605285616427, "longitude": 4.472876827135994},
  {"id": 16, "station": "Dijkzigt", "latitude": 51.912178620074265, "longitude": 4.46676778141334},
  {"id": 17, "station": "Coolhaven", "latitude": 51.90933485657881, "longitude": 4.458221721790413},
  {"id": 18, "station": "Delfshaven", "latitude": 51.910096742088214, "longitude": 4.445759268524583},
  {"id": 19, "station": "Marconiplein", "latitude": 51.913571916950765, "longitude": 4.432279741686022},
  {"id": 20, "station": "Schiedam Centrum", "latitude": 51.92200728647515, "longitude": 4.4097354245607345},
  {"id": 21, "station": "Schiedam Nieuwland", "latitude": 51.92290331251312, "longitude": 4.3838168640459925},
  {"id": 22, "station": "Vlaardingen Oost", "latitude": 51.91016141617456, "longitude": 4.361642242907767},
  {"id": 23, "station": "Vlaardingen Centrum", "latitude": 51.9031378702552, "longitude": 4.343993126907245},
  {"id": 24, "station": "Vlaardingen West", "latitude": 51.903863136175076, "longitude": 4.315148247847898},
  {"id": 25, "station": "Maassluis Centrum", "latitude": 51.91634884353581, "longitude": 4.253890079274963},
  {"id": 26, "station": "Maassluis West", "latitude": 51.926306794483736, "longitude": 4.235099202273018},
  {"id": 27, "station": "Steendijkpolder", "latitude": 51.93270314706829, "longitude": 4.224725760082096},
  {"id": 28, "station": "Hoek van Holland Haven", "latitude": 51.97518172837662, "longitude": 4.1285070246674715},
  {"id": 29, "station": "Hoek van Holland Strand", "latitude": 51.986707169650124, "longitude": 4.1062898487490065},
  {"id": 30, "station": "Nesselande", "latitude": 51.979727009738895, "longitude": 4.586568821434065},
  {"id": 31, "station": "De Tochten", "latitude": 51.96871460579656, "longitude": 4.578115033420526},
  {"id": 32, "station": "Ambachtsland", "latitude": 51.965918384102444, "longitude": 4.570273991578047},
  {"id": 33, "station": "Nieuw Verlaat", "latitude": 51.96499111528403, "longitude": 4.562082862979576},
  {"id": 34, "station": "Hesseplaats", "latitude": 51.96298145185075, "longitude": 4.55244253135093},
  {"id": 35, "station": "De Terp", "latitude": 51.93587355615952, "longitude": 4.60008427827415},
  {"id": 36, "station": "Capelle Centrum", "latitude": 51.931426418006424, "longitude": 4.589420155494974},
  {"id": 37, "station": "Slotlaan", "latitude": 51.92846596205297, "longitude": 4.578335662648441},
  {"id": 38, "station": "Parkweg", "latitude": 51.92143095170487, "longitude": 4.394490714147917},
  {"id": 39, "station": "Troelstralaan", "latitude": 51.91567885414985, "longitude": 4.384471568955798},
  {"id": 40, "station": "Vijfsluizen", "latitude": 51.90918840163619, "longitude": 4.372081855533832},
  {"id": 41, "station": "Pernis", "latitude": 51.884808019811786, "longitude": 4.382006480443382},
  {"id": 42, "station": "Tussenwater", "latitude": 51.86276444393484, "longitude": 4.376500240090424},
  {"id": 43, "station": "Hoogvliet", "latitude": 51.86056576032229, "longitude": 4.3668591758972575},
  {"id": 44, "station": "Zalmplaat", "latitude": 51.85488370870343, "longitude": 4.36222768425585},
  {"id": 45, "station": "Spijkenisse Centrum", "latitude": 51.846489823843605, "longitude": 4.334327485830383},
  {"id": 46, "station": "Heemraadlaan", "latitude": 51.83780417294141, "longitude": 4.331583220664829},
  {"id": 47, "station": "De Akkers", "latitude": 51.83329752563822, "longitude": 4.319708571365391},
  {"id": 48, "station": "Rotterdam Centraal", "latitude": 51.92367941716541, "longitude": 4.47067737354242},
  {"id": 49, "station": "Stadhuis", "latitude": 51.92344359896242, "longitude": 4.477972000776896},
  {"id": 50, "station": "Leuvehaven", "latitude": 51.913646979007545, "longitude": 4.481766383555019},
  {"id": 51, "station": "Wilhelminaplein", "latitude": 51.907186215527766, "longitude": 4.490234899135123},
  {"id": 52, "station": "Rijnhaven", "latitude": 51.90375805287977, "longitude": 4.496770539795942},
  {"id": 53, "station": "Maashaven", "latitude": 51.89718983232824, "longitude": 4.494630769525093},
  {"id": 54, "station": "Zuidplein", "latitude": 51.88693997588264, "longitude": 4.488329358393768},
  {"id": 55, "station": "Slinge", "latitude": 51.87467199395728, "longitude": 4.47762830142211},
  {"id": 56, "station": "Rhoon", "latitude": 51.85917432655215, "longitude":  4.419859390157172},
  {"id": 57, "station": "Poortugaal", "latitude": 51.86160380527653, "longitude": 4.395735439158616},
  {"id": 58, "station": "Blijdorp", "latitude": 51.93053583212639, "longitude": 4.4582302146700306},
  {"id": 59, "station": "Melanchthonweg", "latitude": 51.948860545514336, "longitude": 4.46453327002567},
  {"id": 60, "station": "Meijersplein", "latitude": 51.95575413135828, "longitude": 4.462354927601201},
  {"id": 61, "station": "Rodenrijs", "latitude": 51.97554202245854, "longitude": 4.460668921303174},
  {"id": 62, "station": "Berkel Westpolder", "latitude": 51.990086745958195, "longitude": 4.454166398314124},
  {"id": 63, "station": "Pijnacker Zuid", "latitude": 52.00486714668449, "longitude": 4.445714310413457},
  {"id": 64, "station": "Pijnacker Centrum", "latitude": 52.02058422554035, "longitude": 4.436756312333542},
  {"id": 65, "station": "Nootdorp", "latitude": 52.0476511578167, "longitude": 4.414527177572277},
  {"id": 66, "station": "Leidschenveen", "latitude": 52.06482097431307, "longitude": 4.400151163786754},
  {"id": 67, "station": "Forepark", "latitude": 52.07000638778722, "longitude": 4.392738823909977},
  {"id": 68, "station": "Leidschendam-Voorburg", "latitude": 52.07743579883662, "longitude": 4.381965390002416},
  {"id": 69, "station": "Voorburg 't Loo", "latitude": 52.082097346386384, "longitude": 4.365500117032164},
  {"id": 70, "station": "Laan van NOI", "latitude": 52.07924078161729, "longitude": 4.343015924797181},
  {"id": 71, "station": "Den Haag Centraal", "latitude": 52.08035558233345, "longitude": 4.3261246353740495}
]
