[
  {"id": 1, "station": "Binnenhof", "latitude": 51.8990, "longitude": 4.5796},
  {"id": 2, "station": "Romeynshof", "latitude": 51.9011, "longitude": 4.5718},
  {"id": 3, "station": "Graskruid", "latitude": 51.9032, "longitude": 4.5640},
  {"id": 4, "station": "Alexander", "latitude": 51.9053, "longitude": 4.5562},
  {"id": 5, "station": "Oosterflank", "latitude": 51.9074, "longitude": 4.5484},
  {"id": 6, "station": "Prinsenlaan", "latitude": 51.9095, "longitude": 4.5406},
  {"id": 7, "station": "Schenkel", "latitude": 51.9116, "longitude": 4.5328},
  {"id": 8, "station": "Capelsebrug", "latitude": 51.9137, "longitude": 4.5250},
  {"id": 9, "station": "Kralingse Zoom", "latitude": 51.9158, "longitude": 4.5172},
  {"id": 10, "station": "Voorschoterlaan", "latitude": 51.9179, "longitude": 4.5094},
  {"id": 11, "station": "Gerdesiaweg", "latitude": 51.9200, "longitude": 4.5016},
  {"id": 12, "station": "Oostplein", "latitude": 51.9221, "longitude": 4.4938},
  {"id": 13, "station": "Blaak", "latitude": 51.9242, "longitude": 4.4860},
  {"id": 14, "station": "Beurs", "latitude": 51.9060, "longitude": 4.4801},
  {"id": 15, "station": "Eendrachtsplein", "latitude": 51.9081, "longitude": 4.4723},
  {"id": 16, "station": "Dijkzigt", "latitude": 51.9102, "longitude": 4.4645},
  {"id": 17, "station": "Coolhaven", "latitude": 51.9123, "longitude": 4.4567},
  {"id": 18, "station": "Delfshaven", "latitude": 51.9144, "longitude": 4.4489},
  {"id": 19, "station": "Marconiplein", "latitude": 51.9165, "longitude": 4.4341},
  {"id": 20, "station": "Schiedam Centrum", "latitude": 51.9180, "longitude": 4.3982},
  {"id": 21, "station": "Schiedam Nieuwland", "latitude": 51.9211, "longitude": 4.3833},
  {"id": 22, "station": "Vlaardingen Oost", "latitude": 51.9225, "longitude": 4.3698},
  {"id": 23, "station": "Vlaardingen Centrum", "latitude": 51.9067, "longitude": 4.3556},
  {"id": 24, "station": "Vlaardingen West", "latitude": 51.9123, "longitude": 4.3410},
  {"id": 25, "station": "Hesseplaats", "latitude": 51.8969, "longitude": 4.5874},
  {"id": 26, "station": "Nieuw Verlaat", "latitude": 51.8948, "longitude": 4.5952},
  {"id": 27, "station": "Ambachtsland", "latitude": 51.8927, "longitude": 4.6030},
  {"id": 28, "station": "De Tochten", "latitude": 51.8906, "longitude": 4.6108},
  {"id": 29, "station": "Nesselande", "latitude": 51.8885, "longitude": 4.6186},
  {"id": 30, "station": "De Terp", "latitude": 51.8864, "longitude": 4.6264},
  {"id": 31, "station": "Capelle Centrum", "latitude": 51.8843, "longitude": 4.6342},
  {"id": 32, "station": "Slotlaan", "latitude": 51.8822, "longitude": 4.6420},
  {"id": 33, "station": "De Akkers", "latitude": 51.8801, "longitude": 4.6498},
  {"id": 34, "station": "Heemraadlaan", "latitude": 51.8780, "longitude": 4.6576},
  {"id": 35, "station": "Spijkenisse Centrum", "latitude": 51.8759, "longitude": 4.6654},
  {"id": 36, "station": "Zalmplaat", "latitude": 51.8738, "longitude": 4.6732},
  {"id": 37, "station": "Hoogvliet", "latitude": 51.8717, "longitude": 4.6810},
  {"id": 38, "station": "Tussenwater", "latitude": 51.8696, "longitude": 4.6888},
  {"id": 39, "station": "Pernis", "latitude": 51.8675, "longitude": 4.6966},
  {"id": 40, "station": "Vijfsluizen", "latitude": 51.8654, "longitude": 4.7044},
  {"id": 41, "station": "Troelstralaan", "latitude": 51.8633, "longitude": 4.7122},
  {"id": 42, "station": "Parkweg", "latitude": 51.8612, "longitude": 4.7200},
  {"id": 43, "station": "Poortugaal", "latitude": 51.8591, "longitude": 4.7278},
  {"id": 44, "station": "Rhoon", "latitude": 51.8570, "longitude": 4.7356}
]
